{
  "type": "FeatureCollection",
  "name": "hydro_facilities",
  "crs": {
    "type": "name",
    "properties": {
      "name": "urn:ogc:def:crs:OGC:1.3:CRS84"
    }
  },
  "bbox": [
    -116.33002,
    60.419259,
    -111.390666,
    63.520007
  ],
  "features": [
    {
      "type": "Feature",
      "geometry": {
        "type": "Point",
        "coordinates": [
          -114.20792,
          62.62701
        ]
      },
      "properties": {
        "name": "Bluefish Hydro",
        "location": "Yellowknife",
        "lat": 62.627,
        "lon": -114.2079,
        "capacity_mw": 7.5,
        "community_population": 19569
      }
    },
    {
      "type": "Feature",
      "geometry": {
        "type": "Point",
        "coordinates": [
          -116.20002,
          63.41671
        ]
      },
      "properties": {
        "name": "Snare Cascades",
        "location": "Snare River (Wekweeti)",
        "lat": 63.4167,
        "lon": -116.2,
        "capacity_mw": 4.3,
        "community_population": 126
      }
    },
    {
      "type": "Feature",
      "geometry": {
        "type": "Point",
        "coordinates": [
          -116.18002,
          63.43001
        ]
      },
      "properties": {
        "name": "Snare Falls",
        "location": "Snare River (Wekweeti)",
        "lat": 63.43,
        "lon": -116.18,
        "capacity_mw": 7.5,
        "community_population": 126
      }
    },
    {
      "type": "Feature",
      "geometry": {
        "type": "Point",
        "coordinates": [
          -116.33002,
          63.33001
        ]
      },
      "properties": {
        "name": "Snare Forks",
        "location": "Snare River (Wekweeti)",
        "lat": 63.33,
        "lon": -116.33,
        "capacity_mw": 9.15,
        "community_population": 126
      }
    },
    {
      "type": "Feature",
      "geometry": {
        "type": "Point",
        "coordinates": [
          -116.00002,
          63.52001
        ]
      },
      "properties": {
        "name": "Snare Rapids",
        "location": "Snare River (Wekweeti)",
        "lat": 63.52,
        "lon": -116.0,
        "capacity_mw": 8.5,
        "community_population": 126
      }
    },
    {
      "type": "Feature",
      "geometry": {
        "type": "Point",
        "coordinates": [
          -111.39067,
          60.41926
        ]
      },
      "properties": {
        "name": "Taltson Hydro",
        "location": "Fort Smith",
        "lat": 60.419251,
        "lon": -111.390649,
        "capacity_mw": 18.0,
        "community_population": 2542
      }
    }
  ]
}