{
  "type": "FeatureCollection",
  "name": "large_mines",
  "crs": {
    "type": "name",
    "properties": {
      "name": "urn:ogc:def:crs:OGC:1.3:CRS84"
    }
  },
  "bbox": [
    -128.232079,
    61.968627,
    -109.200562,
    64.714641
  ],
  "features": [
    {
      "type": "Feature",
      "geometry": {
        "type": "Point",
        "coordinates": [
          -128.23208,
          61.96863
        ]
      },
      "properties": {
        "name": "Cantung",
        "lat": 61.968627,
        "lon": -128.232079,
        "metal": "Tungsten"
      }
    },
    {
      "type": "Feature",
      "geometry": {
        "type": "Point",
        "coordinates": [
          -115.10366,
          64.40248
        ]
      },
      "properties": {
        "name": "Colomac",
        "lat": 64.402479,
        "lon": -115.103656,
        "metal": "Gold"
      }
    },
    {
      "type": "Feature",
      "geometry": {
        "type": "Point",
        "coordinates": [
          -114.37629,
          62.43085
        ]
      },
      "properties": {
        "name": "Con ",
        "lat": 62.430852,
        "lon": -114.376289,
        "metal": "Gold"
      }
    },
    {
      "type": "Feature",
      "geometry": {
        "type": "Point",
        "coordinates": [
          -110.24553,
          64.49655
        ]
      },
      "properties": {
        "name": "Diavik Diamond Mine",
        "lat": 64.496549,
        "lon": -110.245527,
        "metal": "Diamond"
      }
    },
    {
      "type": "Feature",
      "geometry": {
        "type": "Point",
        "coordinates": [
          -113.89167,
          63.18667
        ]
      },
      "properties": {
        "name": "Discovery",
        "lat": 63.18666667,
        "lon": -113.8916667,
        "metal": "Gold"
      }
    },
    {
      "type": "Feature",
      "geometry": {
        "type": "Point",
        "coordinates": [
          -110.62096,
          64.71464
        ]
      },
      "properties": {
        "name": "Ekati Diamond Mine",
        "lat": 64.714641,
        "lon": -110.620958,
        "metal": "Diamond"
      }
    },
    {
      "type": "Feature",
      "geometry": {
        "type": "Point",
        "coordinates": [
          -116.74099,
          63.54827
        ]
      },
      "properties": {
        "name": "Fortune Minerals NICO mine",
        "lat": 63.548268,
        "lon": -116.740995,
        "metal": "Gold"
      }
    },
    {
      "type": "Feature",
      "geometry": {
        "type": "Point",
        "coordinates": [
          -109.20056,
          63.43469
        ]
      },
      "properties": {
        "name": "Gahcho Kue",
        "lat": 63.434689,
        "lon": -109.200562,
        "metal": "Diamond"
      }
    },
    {
      "type": "Feature",
      "geometry": {
        "type": "Point",
        "coordinates": [
          -114.3603,
          62.4981
        ]
      },
      "properties": {
        "name": "Giant",
        "lat": 62.4981,
        "lon": -114.3603,
        "metal": "Gold"
      }
    },
    {
      "type": "Feature",
      "geometry": {
        "type": "Point",
        "coordinates": [
          -114.3112,
          62.61898
        ]
      },
      "properties": {
        "name": "Gold Terra Yellowknife City",
        "lat": 62.618975,
        "lon": -114.311204,
        "metal": "Gold"
      }
    },
    {
      "type": "Feature",
      "geometry": {
        "type": "Point",
        "coordinates": [
          -115.13176,
          64.31894
        ]
      },
      "properties": {
        "name": "Nighthawk Gold Corp. Indin Lake Gold Property",
        "lat": 64.31894,
        "lon": -115.131758,
        "metal": "Gold"
      }
    },
    {
      "type": "Feature",
      "geometry": {
        "type": "Point",
        "coordinates": [
          -115.81852,
          63.17389
        ]
      },
      "properties": {
        "name": "Rover Metals Cabin Lake- Arrow Zone property",
        "lat": 63.173894,
        "lon": -115.818516,
        "metal": "Gold"
      }
    },
    {
      "type": "Feature",
      "geometry": {
        "type": "Point",
        "coordinates": [
          -111.43401,
          64.04185
        ]
      },
      "properties": {
        "name": "Seabridge Gold Inc. Courageous Lake",
        "lat": 64.041851,
        "lon": -111.434014,
        "metal": "Gold"
      }
    },
    {
      "type": "Feature",
      "geometry": {
        "type": "Point",
        "coordinates": [
          -114.31895,
          62.89225
        ]
      },
      "properties": {
        "name": "Sixty North Gold Mon project",
        "lat": 62.89225,
        "lon": -114.31895,
        "metal": "Gold"
      }
    }
  ]
}